[
    {
        "name": "Łęgi Rogalińskie",
        "category": "Wyróżnione",
        "city": "Rogalin",
        "state": "Wielkopolska",
        "id": 1001,
        "isFeatured": true,
        "isFavorite": true,
        "park": "Wielkopolski Park Krajobrazowy",
        "coordinates": {
            "longitude": 16.905451,
            "latitude": 52.240897
        },
        "imageName": "Rogalin1"
    },
    {
        "name": "ZNTK",
        "category": "Opuszczone",
        "city": "Poznań",
        "state": "Wielkopolska",
        "id": 1002,
        "isFeatured": false,
        "isFavorite": false,
        "park": "Poznań",
        "coordinates": {
            "longitude": 16.913820,
            "latitude": 52.394529
        },
        "imageName": "ZNTK1"
    },
    {
        "name": "Łęgi koło Goliny",
        "category": "Krajobraz",
        "city": "Golina",
        "state": "Wielkopolska",
        "id": 1003,
        "isFeatured": false,
        "isFavorite": false,
        "park": "Łęgi nadwarciańskie",
        "coordinates": {
            "longitude": 18.058580,
            "latitude": 52.208544
        },
        "imageName": "Golina1"
    },
    {
        "name": "Warszawa",
        "category": "Miasto",
        "city": "Warszawa",
        "state": "Mazowieckie",
        "id": 1004,
        "isFeatured": false,
        "isFavorite": false,
        "park": "Warszawa",
        "coordinates": {
            "longitude": 21.011283,
            "latitude": 52.229798
        },
        "imageName": "Warszawa1"
    },
    {
           "name": "Łęgi Rogalińskie",
           "category": "Krajobraz",
           "city": "Rogalin",
           "state": "Wielkopolskie",
           "id": 1005,
           "isFeatured": false,
           "isFavorite": false,
           "park": "Wielkopolski Park Krajobrazowy",
           "coordinates": {
               "longitude": 16.905451,
               "latitude": 52.394529
           },
           "imageName": "Rogalin2"
       },
    {
        "name": "Opuszczony Szpital dziecięcy",
        "category": "Opuszczone",
        "city": "Miłowody",
        "state": "Wielkopolskie",
        "id": 1006,
        "isFeatured": false,
        "isFavorite": false,
        "park": "Kowanówko",
        "coordinates": {
            "longitude": 16.846390,
            "latitude": 52.670635
        },
        "imageName": "Szpital1"
    },
    {
        "name": "Opuszczony Szpital dziecięcy",
        "category": "Opuszczone",
        "city": "Miłowody",
        "state": "Wielkopolskie",
        "id": 1007,
        "isFeatured": false,
        "isFavorite": false,
        "park": "Kowanówko",
        "coordinates": {
            "longitude": 16.846390,
            "latitude": 52.670635
        },
        "imageName": "Szpital2"
    },
    {
        "name": "Opuszczony Szpital dziecięcy",
        "category": "Opuszczone",
        "city": "Miłowody",
        "state": "Wielkopolskie",
        "id": 1008,
        "isFeatured": false,
        "isFavorite": false,
        "park": "Kowanówko",
        "coordinates": {
            "longitude": 16.846390,
            "latitude": 52.670635
        },
        "imageName": "Szpital3"
    },
    {
        "name": "Willa",
        "category": "Opuszczone",
        "city": "Baranowo",
        "state": "Wielkopolskie",
        "id": 1009,
        "isFeatured": false,
        "isFavorite": false,
        "park": "Baranowo",
        "coordinates": {
            "longitude": 16.775828,
            "latitude": 52.446882
        },
        "imageName": "Willa1"
    },
    {
        "name": "Jezioro Kierskie",
        "category": "Krajobraz",
        "city": "Kiekrz",
        "state": "Wielkopolskie",
        "id": 1010,
        "isFeatured": false,
        "isFavorite": false,
        "park": "Kiekrz",
        "coordinates": {
            "longitude": 16.802651,
            "latitude": 52.444651
        },
        "imageName": "Kiekrz1"
    },
    {
        "name": "Łęgi Rogalińskie",
        "category": "Krajobraz",
        "city": "Rogalin",
        "state": "Wielkopolskie",
        "id": 1011,
        "isFeatured": false,
        "isFavorite": false,
        "park": "Wielkopolski Park Krajobrazowy",
        "coordinates": {
            "longitude": 16.905451,
            "latitude": 52.394529
        },
        "imageName": "Rogalin3"
    },
    {
        "name": "Opuszczony dom",
        "category": "Opuszczone",
        "city": "Konin",
        "state": "Wielkopolskie",
        "id": 1012,
        "isFeatured": false,
        "isFavorite": false,
        "park": "Konin",
        "coordinates": {
            "longitude": 18.082861,
            "latitude": 52.190480
        },
        "imageName": "Konin1"
    },
    {
        "name": "Jezioro Rusałka",
        "category": "Krajobraz",
        "city": "Poznań",
        "state": "Wielkopolskie",
        "id": 1013,
        "isFeatured": false,
        "isFavorite": false,
        "park": "Konin",
        "coordinates": {
            "longitude": 16.883727,
            "latitude": 52.426368
        },
        "imageName": "Rusalka1"
    },
    {
        "name": "Pałac w Bełczu Wielkim",
        "category": "Opuszczone",
        "city": "Bełcz Wielki",
        "state": "Dolnośląskie",
        "id": 1014,
        "isFeatured": false,
        "isFavorite": false,
        "park": "Bełcz Wielki",
        "coordinates": {
            "longitude": 16.357145,
            "latitude": 51.616269
        },
        "imageName": "Belcz1"
    },
    {
        "name": "Pałac w Bełczu Wielkim",
        "category": "Opuszczone",
        "city": "Bełcz Wielki",
        "state": "Dolnośląskie",
        "id": 1015,
        "isFeatured": false,
        "isFavorite": false,
        "park": "Bełcz Wielki",
        "coordinates": {
            "longitude": 16.357145,
            "latitude": 51.616269
        },
        "imageName": "Belcz2"
    },
    {
        "name": "Krajobraz górski",
        "category": "Krajobraz",
        "city": "-",
        "state": "Dolnośląskie",
        "id": 1016,
        "isFeatured": false,
        "isFavorite": false,
        "park": "-",
        "coordinates": {
            "longitude": 15.816423,
            "latitude": 50.951381
        },
        "imageName": "Gory1"
    },
    {
        "name": "Wodospad Kamieńczyk",
        "category": "Krajobraz",
        "city": "Szklarska Poręba",
        "state": "Dolnośląskie",
        "id": 1017,
        "isFeatured": false,
        "isFavorite": false,
        "park": "Karkonoski Park Narodowy",
        "coordinates": {
            "longitude": 15.496484,
            "latitude": 50.813672
        },
        "imageName": "Kamienczyk1"
    },
    {
        "name": "Karkonoski Park Narodowy",
        "category": "Krajobraz",
        "city": "Karpacz",
        "state": "Dolnośląskie",
        "id": 1018,
        "isFeatured": false,
        "isFavorite": false,
        "park": "Karkonoski Park Narodowy",
        "coordinates": {
            "longitude": 15.724128,
            "latitude": 50.763826
        },
        "imageName": "KPN1"
    },
    {
        "name": "Schronisko Samotnia",
        "category": "Krajobraz",
        "city": "Karpacz",
        "state": "Dolnośląskie",
        "id": 1019,
        "isFeatured": false,
        "isFavorite": false,
        "park": "Karkonoski Park Narodowy",
        "coordinates": {
            "longitude": 15.702556,
            "latitude": 50.748953
        },
        "imageName": "Samotnia1"
    },
    {
        "name": "Dziki Wodospad",
        "category": "Krajobraz",
        "city": "Karpacz",
        "state": "Dolnośląskie",
        "id": 1020,
        "isFeatured": false,
        "isFavorite": false,
        "park": "Karkonoski Park Narodowy",
        "coordinates": {
            "longitude": 15.727863,
            "latitude": 50.768715
        },
        "imageName": "Dziki1"
    },
    {
        "name": "Wodospad Szklarki",
        "category": "Krajobraz",
        "city": "Piechowice",
        "state": "Dolnośląskie",
        "id": 1021,
        "isFeatured": false,
        "isFavorite": false,
        "park": "Karkonoski Park Narodowy",
        "coordinates": {
            "longitude": 15.555757,
            "latitude": 50.829937
        },
        "imageName": "Szklarki1"
    },
    {
        "name": "Opuszczony hotel Sudety",
        "category": "Opuszczone",
        "city": "Jelenia Góra",
        "state": "Dolnośląskie",
        "id": 1022,
        "isFeatured": false,
        "isFavorite": false,
        "park": "Jelenia Góra",
        "coordinates": {
            "longitude": 15.761759,
            "latitude": 50.900415
        },
        "imageName": "Jelenia1"
    },
    {
        "name": "Opuszczony tunel kolejowy",
        "category": "Opuszczone",
        "city": "Kowary",
        "state": "Dolnośląskie",
        "id": 1023,
        "isFeatured": false,
        "isFavorite": false,
        "park": "Kowary",
        "coordinates": {
            "longitude": 15.859503,
            "latitude": 50.765138
        },
        "imageName": "Tunel1"
    },
    {
        "name": "Opuszczony Hotel w Karpaczu",
        "category": "Opuszczone",
        "city": "Kowary",
        "state": "Dolnośląskie",
        "id": 1024,
        "isFeatured": false,
        "isFavorite": false,
        "park": "Kowary",
        "coordinates": {
            "longitude": 15.724194,
            "latitude": 50.780235
        },
        "imageName": "HotelKarpacz1"
    },
    {
        "name": "Opuszczony szpital kawalerów Maltańskich",
        "category": "Opuszczone",
        "city": "Mokrzeszów",
        "state": "Dolnośląskie",
        "id": 1026,
        "isFeatured": false,
        "isFavorite": false,
        "park": "Mokrzeszów",
        "coordinates": {
            "longitude": 16.369660,
            "latitude": 50.851247
        },
        "imageName": "Mokrzeszow1"
    },
    {
        "name": "Opuszczony szpital kawalerów Maltańskich",
        "category": "Opuszczone",
        "city": "Mokrzeszów",
        "state": "Dolnośląskie",
        "id": 1027,
        "isFeatured": false,
        "isFavorite": false,
        "park": "Mokrzeszów",
        "coordinates": {
            "longitude": 16.369660,
            "latitude": 50.851247
        },
        "imageName": "Mokrzeszow2"
    },
    {
        "name": "Poznań",
        "category": "Miasto",
        "city": "Poznań",
        "state": "Wielkopolskie",
        "id": 1028,
        "isFeatured": false,
        "isFavorite": false,
        "park": "Poznań",
        "coordinates": {
            "longitude": 16.913519,
            "latitude": 52.407983
        },
        "imageName": "Poznan1"
    },
    {
        "name": "Świnoujście",
        "category": "Miasto",
        "city": "Świnoujście",
        "state": "Zachodniopomorskie",
        "id": 1029,
        "isFeatured": false,
        "isFavorite": false,
        "park": "Świnoujście",
        "coordinates": {
            "longitude": 14.274611,
            "latitude": 53.922935
        },
        "imageName": "Swinoujscie1"
    },
]
