[
    {
        "name": "Łęgi Rogalińskie",
        "category": "Wyróżnione",
        "city": "Rogalin",
        "state": "Wielkopolska",
        "id": 1001,
        "isFeatured": true,
        "isFavorite": true,
        "park": "Wielkopolski Park Krajobrazowy",
        "coordinates": {
            "longitude": 16.905451,
            "latitude": 52.240897
        },
        "imageName": "Rogalin1"
    },
    {
        "name": "ZNTK",
        "category": "Opuszczone",
        "city": "Poznań",
        "state": "Wielkopolska",
        "id": 1002,
        "isFeatured": false,
        "isFavorite": false,
        "park": "Poznań",
        "coordinates": {
            "longitude": 16.913820,
            "latitude": 52.394529
        },
        "imageName": "ZNTK1"
    },
    {
        "name": "Łęgi koło Goliny",
        "category": "Krajobraz",
        "city": "Golina",
        "state": "Wielkopolska",
        "id": 1003,
        "isFeatured": false,
        "isFavorite": false,
        "park": "Łęgi nadwarciańskie",
        "coordinates": {
            "longitude": 18.058580,
            "latitude": 52.208544
        },
        "imageName": "Golina1"
    },
    {
        "name": "Warszawa",
        "category": "Miasto",
        "city": "Warszawa",
        "state": "Mazowieckie",
        "id": 1004,
        "isFeatured": false,
        "isFavorite": false,
        "park": "Warszawa",
        "coordinates": {
            "longitude": 21.011283,
            "latitude": 52.229798
        },
        "imageName": "Warszawa1"
    },
    {
           "name": "Łęgi Rogalińskie",
           "category": "Krajobraz",
           "city": "Rogalin",
           "state": "Wielkopolskie",
           "id": 1005,
           "isFeatured": false,
           "isFavorite": false,
           "park": "Wielkopolski Park Krajobrazowy",
           "coordinates": {
               "longitude": 16.905451,
               "latitude": 52.394529
           },
           "imageName": "Rogalin2"
       },
    {
        "name": "Opuszczony Szpital dziecięcy",
        "category": "Opuszczone",
        "city": "Miłowody",
        "state": "Wielkopolskie",
        "id": 1006,
        "isFeatured": false,
        "isFavorite": false,
        "park": "Kowanówko",
        "coordinates": {
            "longitude": 16.846390,
            "latitude": 52.670635
        },
        "imageName": "Szpital1"
    },
    {
        "name": "Opuszczony Szpital dziecięcy",
        "category": "Opuszczone",
        "city": "Miłowody",
        "state": "Wielkopolskie",
        "id": 1007,
        "isFeatured": false,
        "isFavorite": false,
        "park": "Kowanówko",
        "coordinates": {
            "longitude": 16.846390,
            "latitude": 52.670635
        },
        "imageName": "Szpital2"
    },
    {
        "name": "Opuszczony Szpital dziecięcy",
        "category": "Opuszczone",
        "city": "Miłowody",
        "state": "Wielkopolskie",
        "id": 1008,
        "isFeatured": false,
        "isFavorite": false,
        "park": "Kowanówko",
        "coordinates": {
            "longitude": 16.846390,
            "latitude": 52.670635
        },
        "imageName": "Szpital3"
    },
    {
        "name": "Willa",
        "category": "Opuszczone",
        "city": "Baranowo",
        "state": "Wielkopolskie",
        "id": 1009,
        "isFeatured": false,
        "isFavorite": false,
        "park": "Baranowo",
        "coordinates": {
            "longitude": 16.775828,
            "latitude": 52.446882
        },
        "imageName": "Willa1"
    },
    {
        "name": "Jezioro Kierskie",
        "category": "Krajobraz",
        "city": "Kiekrz",
        "state": "Wielkopolskie",
        "id": 1010,
        "isFeatured": false,
        "isFavorite": false,
        "park": "Kiekrz",
        "coordinates": {
            "longitude": 16.802651,
            "latitude": 52.444651
        },
        "imageName": "Kiekrz1"
    },
    {
        "name": "Łęgi Rogalińskie",
        "category": "Krajobraz",
        "city": "Rogalin",
        "state": "Wielkopolskie",
        "id": 1011,
        "isFeatured": false,
        "isFavorite": false,
        "park": "Wielkopolski Park Krajobrazowy",
        "coordinates": {
            "longitude": 16.905451,
            "latitude": 52.394529
        },
        "imageName": "Rogalin3"
    },
    {
        "name": "Opuszczony dom",
        "category": "Opuszczone",
        "city": "Konin",
        "state": "Wielkopolskie",
        "id": 1012,
        "isFeatured": false,
        "isFavorite": false,
        "park": "Konin",
        "coordinates": {
            "longitude": 18.082861,
            "latitude": 52.190480
        },
        "imageName": "Konin1"
    },
    {
        "name": "Jezioro Rusałka",
        "category": "Krajobraz",
        "city": "Poznań",
        "state": "Wielkopolskie",
        "id": 1013,
        "isFeatured": false,
        "isFavorite": false,
        "park": "Konin",
        "coordinates": {
            "longitude": 16.883727,
            "latitude": 52.426368
        },
        "imageName": "Rusalka1"
    },
]
